[
    {
        "id": "1",
        "name": "Kafe Parus",
        "phoneNumber": "+7 862 226-56-81",
        "description": "A 12-minute walk from Olympic Ave.",
        "address": {
            "streetNumber": "7",
            "streetName": "Ulitsa Parusnaya",
            "city": "Krasnodarskiy kray",
            "state": "RU",
            "country": "Rusia",
            "postalCode": "354340",
            "lat": 43.404344,
            "lon": 39.945902
        }
    },
    {
        "id": "2",
        "name": "La Punto Restaurant",
        "phoneNumber": "+7 988 234-64-44",
        "description": "A 5-minute walk from Ulitsa Mezhdunarodnaya",
        "address": {
            "streetNumber": "2",
            "streetName": "Ulitsa Parusnaya",
            "city": "Krasnodarskiy kray",
            "state": "RU",
            "country": "Rusia",
            "postalCode": "354340",
            "lat": 43.403758,
            "lon": 39.961621
        }
    },
    {
        "id": "3",
        "name": "Oscar Lounge Club",
        "phoneNumber": "+7 800 234-57-87",
        "description": "A 27-minute walk from Olympic Ave. or 39-minute by bus 125s/135 from Fisht-Arena.",
        "address": {
            "streetNumber": "1",
            "streetName": "Bul var Morskoy",
            "city": "Krasnodarskiy kray",
            "state": "RU",
            "country": "Rusia",
            "postalCode": "354340",
            "lat": 43.412195,
            "lon": 39.935700
        }
    },
    {
        "id": "4",
        "name": "English Pub Prince of Wales",
        "phoneNumber": "+7 938 455-00-58",
        "description": "A 27-minute walk from Olympic Ave. or 39-minute by bus 125s/135 from Fisht-Arena.",
        "address": {
            "streetNumber": "1",
            "streetName": "24 Bul var Morskoy",
            "city": "Krasnodarskiy kray",
            "state": "RU",
            "country": "Rusia",
            "postalCode": "94105",
            "lat": 43.412658,
            "lon": 39.936563
        }
    },
    {
        "id": "5",
        "name": "O'Sullivan's Pub",
        "phoneNumber": "+7 938 455-00-74",
        "description": "A 25-minute walk from Olympic Ave. or 32-minute by bus 125s from Fisht-Arena.",
        "address": {
            "streetNumber": "55",
            "streetName": "65 Let Pobedy St",
            "city": "Krasnodarskiy kray",
            "state": "RU",
            "country": "Rusia",
            "postalCode": "94109",
            "lat": 43.398551,
            "lon": 39.975695
        }
    }
]
